[
{
        "id":" ",
        "name": "Seleccione su localidad"
        
    },
{
        "id": 3427208,
        "name": "Zelaya",
        "state": "",
        "country": "AR",
        "coord": {
            "lon": -58.86977,
            "lat": -34.370789
        }
    },
    {
        "id": 3427212,
        "name": "Partido de Zárate",
        "state": "",
        "country": "AR",
        "coord": {
            "lon": -59.166672,
            "lat": -34.0
        }
    },
    {
        "id": 3427213,
        "name": "Zárate",
        "state": "",
        "country": "AR",
        "coord": {
            "lon": -59.02858,
            "lat": -34.098141
        }
    },
    {
        "id": 3427215,
        "name": "Zapiola",
        "state": "",
        "country": "AR",
        "coord": {
            "lon": -59.040981,
            "lat": -35.059021
        }
    },
    {
        "id": 3427273,
        "name": "Yataity Calle",
        "state": "",
        "country": "AR",
        "coord": {
            "lon": -58.908459,
            "lat": -29.019131
        }
    },
    {
        "id": 3427279,
        "name": "Yapeyú",
        "state": "",
        "country": "AR",
        "coord": {
            "lon": -56.818409,
            "lat": -29.469139
        }
    },
    {
        "id": 3427326,
        "name": "Wilde",
        "state": "",
        "country": "AR",
        "coord": {
            "lon": -58.31287,
            "lat": -34.694672
        }
    },
    {
        "id": 3427340,
        "name": "Vivoratá",
        "state": "",
        "country": "AR",
        "coord": {
            "lon": -57.666328,
            "lat": -37.663872
        }
    },
    {
        "id": 3427361,
        "name": "Villa Zorraquín",
        "state": "",
        "country": "AR",
        "coord": {
            "lon": -58.01384,
            "lat": -31.322359
        }
    },
    {
        "id": 3427362,
        "name": "Villa Zagala",
        "state": "",
        "country": "AR",
        "coord": {
            "lon": -58.537682,
            "lat": -34.551262
        }
    },
    {
        "id": 3427365,
        "name": "Villa Svea",
        "state": "",
        "country": "AR",
        "coord": {
            "lon": -55.146332,
            "lat": -27.48617
        }
    },
    {
        "id": 3427367,
        "name": "Villa Sarmiento",
        "state": "",
        "country": "AR",
        "coord": {
            "lon": -58.38319,
            "lat": -34.701248
        }
    },
    {
        "id": 3427369,
        "name": "Villa San Marcial",
        "state": "",
        "country": "AR",
        "coord": {
            "lon": -58.933331,
            "lat": -32.166672
        }
    },
    {
        "id": 3427373,
        "name": "Villa San Francisco",
        "state": "",
        "country": "AR",
        "coord": {
            "lon": -58.203659,
            "lat": -34.772331
        }
    },
    {
        "id": 3427375,
        "name": "Villars",
        "state": "",
        "country": "AR",
        "coord": {
            "lon": -58.940842,
            "lat": -34.826351
        }
    },
    {
        "id": 3427377,
        "name": "Villa Rosa",
        "state": "",
        "country": "AR",
        "coord": {
            "lon": -58.871159,
            "lat": -34.416569
        }
    },
    {
        "id": 3427380,
        "name": "Villa Residencial Laguna Brava",
        "state": "",
        "country": "AR",
        "coord": {
            "lon": -57.983501,
            "lat": -37.85965
        }
    },
    {
        "id": 3427381,
        "name": "Villa Reichembach",
        "state": "",
        "country": "AR",
        "coord": {
            "lon": -58.69997,
            "lat": -34.6558
        }
    },
    {
        "id": 3427382,
        "name": "Villa Recondo",
        "state": "",
        "country": "AR",
        "coord": {
            "lon": -58.476101,
            "lat": -34.705761
        }
    },
    {
        "id": 3427386,
        "name": "Villa Paranacito",
        "state": "",
        "country": "AR",
        "coord": {
            "lon": -58.657982,
            "lat": -33.72208
        }
    },
    {
        "id": 3427387,
        "name": "Villa Ortúzar",
        "state": "",
        "country": "AR",
        "coord": {
            "lon": -58.48333,
            "lat": -34.583328
        }
    },
    {
        "id": 3427388,
        "name": "Villa Ocampo",
        "state": "",
        "country": "AR",
        "coord": {
            "lon": -59.355148,
            "lat": -28.48752
        }
    },
    {
        "id": 3427397,
        "name": "Villa Martínez de Hoz",
        "state": "",
        "country": "AR",
        "coord": {
            "lon": -58.575951,
            "lat": -34.62307
        }
    },
    {
        "id": 3427399,
        "name": "Villa María Grande",
        "state": "",
        "country": "AR",
        "coord": {
            "lon": -59.901821,
            "lat": -31.665649
        }
    },
    {
        "id": 3427404,
        "name": "Villa Mantero",
        "state": "",
        "country": "AR",
        "coord": {
            "lon": -58.74596,
            "lat": -32.39727
        }
    },
    {
        "id": 3427406,
        "name": "Villa Luzuriaga",
        "state": "",
        "country": "AR",
        "coord": {
            "lon": -58.582191,
            "lat": -34.656818
        }
    },
    {
        "id": 3427407,
        "name": "Villa Luro",
        "state": "",
        "country": "AR",
        "coord": {
            "lon": -58.502731,
            "lat": -34.638142
        }
    },
    {
        "id": 3427411,
        "name": "Villa Libertad",
        "state": "",
        "country": "AR",
        "coord": {
            "lon": -58.567268,
            "lat": -34.5835
        }
    },
    {
        "id": 3427413,
        "name": "Villa León",
        "state": "",
        "country": "AR",
        "coord": {
            "lon": -58.702599,
            "lat": -34.631969
        }
    },
    {
        "id": 3427414,
        "name": "Villa Leloir",
        "state": "",
        "country": "AR",
        "coord": {
            "lon": -58.678341,
            "lat": -34.612179
        }
    },
    {
        "id": 3427417,
        "name": "Villa Insuperable",
        "state": "",
        "country": "AR",
        "coord": {
            "lon": -58.511051,
            "lat": -34.67083
        }
    },
    {
        "id": 3427420,
        "name": "Villa Hernandarias",
        "state": "",
        "country": "AR",
        "coord": {
            "lon": -59.985001,
            "lat": -31.23101
        }
    },
    {
        "id": 3427422,
        "name": "Villa Guillermina",
        "state": "",
        "country": "AR",
        "coord": {
            "lon": -59.454441,
            "lat": -28.24258
        }
    },
    {
        "id": 3427426,
        "name": "Departamento de Villaguay",
        "state": "",
        "country": "AR",
        "coord": {
            "lon": -59.0,
            "lat": -31.58333
        }
    },
    {
        "id": 3427428,
        "name": "Villaguay",
        "state": "",
        "country": "AR",
        "coord": {
            "lon": -59.02689,
            "lat": -31.865299
        }
    },
    {
        "id": 3427430,
        "name": "Villa Giambruno",
        "state": "",
        "country": "AR",
        "coord": {
            "lon": -58.209499,
            "lat": -34.80336
        }
    },
    {
        "id": 3427431,
        "name": "Villa Gesell",
        "state": "",
        "country": "AR",
        "coord": {
            "lon": -56.973042,
            "lat": -37.263939
        }
    },
    {
        "id": 3427435,
        "name": "Villa Galicia",
        "state": "",
        "country": "AR",
        "coord": {
            "lon": -58.379829,
            "lat": -34.762249
        }
    },
    {
        "id": 3427439,
        "name": "Villa Escolar",
        "state": "",
        "country": "AR",
        "coord": {
            "lon": -58.671341,
            "lat": -26.622089
        }
    },
    {
        "id": 3427443,
        "name": "Villa Elisa",
        "state": "",
        "country": "AR",
        "coord": {
            "lon": -58.400822,
            "lat": -32.1632
        }
    },
    {
        "id": 3427444,
        "name": "Villa El Cacique",
        "state": "",
        "country": "AR",
        "coord": {
            "lon": -59.395691,
            "lat": -37.676159
        }
    },
    {
        "id": 3427445,
        "name": "Villa D. Sobral",
        "state": "",
        "country": "AR",
        "coord": {
            "lon": -58.245441,
            "lat": -34.758499
        }
    },
    {
        "id": 3427447,
        "name": "Villa Domínico",
        "state": "",
        "country": "AR",
        "coord": {
            "lon": -58.31963,
            "lat": -34.689529
        }
    },
    {
        "id": 3427448,
        "name": "Villa Dolores",
        "state": "",
        "country": "AR",
        "coord": {
            "lon": -55.91,
            "lat": -27.40704
        }
    },
    {
        "id": 3427449,
        "name": "Villa Diamante",
        "state": "",
        "country": "AR",
        "coord": {
            "lon": -58.43298,
            "lat": -34.681889
        }
    },
    {
        "id": 3427451,
        "name": "Villa Devoto",
        "state": "",
        "country": "AR",
        "coord": {
            "lon": -58.51231,
            "lat": -34.600639
        }
    },
    {
        "id": 3427453,
        "name": "Villa de Mayo",
        "state": "",
        "country": "AR",
        "coord": {
            "lon": -58.67952,
            "lat": -34.504719
        }
    },
    {
        "id": 3427454,
        "name": "Villa del Rosario",
        "state": "",
        "country": "AR",
        "coord": {
            "lon": -57.912571,
            "lat": -30.79567
        }
    },
    {
        "id": 3427455,
        "name": "Villa del Parque",
        "state": "",
        "country": "AR",
        "coord": {
            "lon": -58.48872,
            "lat": -34.600571
        }
    },
    {
        "id": 3427456,
        "name": "Villa de los Patricios",
        "state": "",
        "country": "AR",
        "coord": {
            "lon": -58.537331,
            "lat": -34.61969
        }
    },
    {
        "id": 3427458,
        "name": "Villa Crespo",
        "state": "",
        "country": "AR",
        "coord": {
            "lon": -58.44735,
            "lat": -34.60001
        }
    },
    {
        "id": 3427464,
        "name": "Villa Basso",
        "state": "",
        "country": "AR",
        "coord": {
            "lon": -58.591759,
            "lat": -34.63377
        }
    },
    {
        "id": 3427465,
        "name": "Villa Barilari",
        "state": "",
        "country": "AR",
        "coord": {
            "lon": -58.331501,
            "lat": -34.702759
        }
    },
    {
        "id": 3427470,
        "name": "Villa Ansaldi",
        "state": "",
        "country": "AR",
        "coord": {
            "lon": -58.51445,
            "lat": -34.6796
        }
    },
    {
        "id": 3427473,
        "name": "Villa Altube",
        "state": "",
        "country": "AR",
        "coord": {
            "lon": -58.746559,
            "lat": -34.52647
        }
    },
    {
        "id": 3427475,
        "name": "Villa Alianza",
        "state": "",
        "country": "AR",
        "coord": {
            "lon": -58.550468,
            "lat": -34.612598
        }
    },
    {
        "id": 3427478,
        "name": "Villa Adelina",
        "state": "",
        "country": "AR",
        "coord": {
            "lon": -58.5476,
            "lat": -34.529751
        }
    },
    {
        "id": 3427500,
        "name": "Victoria",
        "state": "",
        "country": "AR",
        "coord": {
            "lon": -58.546139,
            "lat": -34.455051
        }
    },
    {
        "id": 3427504,
        "name": "Partido de Vicente López",
        "state": "",
        "country": "AR",
        "coord": {
            "lon": -58.474388,
            "lat": -34.523529
        }
    },
    {
        "id": 3427505,
        "name": "Vicente López",
        "state": "",
        "country": "AR",
        "coord": {
            "lon": -58.473701,
            "lat": -34.529469
        }
    },
    {
        "id": 3427510,
        "name": "Versailles",
        "state": "",
        "country": "AR",
        "coord": {
            "lon": -58.515041,
            "lat": -34.627491
        }
    },
    {
        "id": 3427511,
        "name": "Verónica",
        "state": "",
        "country": "AR",
        "coord": {
            "lon": -57.33691,
            "lat": -35.387959
        }
    },
    {
        "id": 3427528,
        "name": "Vélez Sarsfield",
        "state": "",
        "country": "AR",
        "coord": {
            "lon": -58.48333,
            "lat": -34.633331
        }
    },
    {
        "id": 3427535,
        "name": "Departamento de Veinticinco de Mayo",
        "state": "",
        "country": "AR",
        "coord": {
            "lon": -54.666672,
            "lat": -27.41667
        }
    },
    {
        "id": 3427537,
        "name": "Veinticinco de Mayo",
        "state": "",
        "country": "AR",
        "coord": {
            "lon": -54.743118,
            "lat": -27.376789
        }
    },
    {
        "id": 3427561,
        "name": "Valeria del Mar",
        "state": "",
        "country": "AR",
        "coord": {
            "lon": -56.890461,
            "lat": -37.146042
        }
    },
    {
        "id": 3427565,
        "name": "Vagues",
        "state": "",
        "country": "AR",
        "coord": {
            "lon": -59.462521,
            "lat": -34.29932
        }
    },
    {
        "id": 3427582,
        "name": "Urdinarrain",
        "state": "",
        "country": "AR",
        "coord": {
            "lon": -58.893242,
            "lat": -32.68573
        }
    },
    {
        "id": 3427593,
        "name": "Ubajay",
        "state": "",
        "country": "AR",
        "coord": {
            "lon": -58.313499,
            "lat": -31.793579
        }
    },
    {
        "id": 3427602,
        "name": "Turdera",
        "state": "",
        "country": "AR",
        "coord": {
            "lon": -58.402771,
            "lat": -34.790451
        }
    },
    {
        "id": 3427659,
        "name": "Tres Capones",
        "state": "",
        "country": "AR",
        "coord": {
            "lon": -55.60471,
            "lat": -28.006411
        }
    },
    {
        "id": 3427662,
        "name": "Tres Bocas",
        "state": "",
        "country": "AR",
        "coord": {
            "lon": -59.766441,
            "lat": -32.739891
        }
    },
    {
        "id": 3427687,
        "name": "Tortuguitas",
        "state": "",
        "country": "AR",
        "coord": {
            "lon": -58.759171,
            "lat": -34.469681
        }
    },
    {
        "id": 3427753,
        "name": "Partido de Tigre",
        "state": "",
        "country": "AR",
        "coord": {
            "lon": -58.58279,
            "lat": -34.420582
        }
    },
    {
        "id": 3427761,
        "name": "Tigre",
        "state": "",
        "country": "AR",
        "coord": {
            "lon": -58.57962,
            "lat": -34.426029
        }
    },
    {
        "id": 3427818,
        "name": "Tapiales",
        "state": "",
        "country": "AR",
        "coord": {
            "lon": -58.508492,
            "lat": -34.699909
        }
    },
    {
        "id": 3427832,
        "name": "Partido de Tandil",
        "state": "",
        "country": "AR",
        "coord": {
            "lon": -59.25,
            "lat": -37.333328
        }
    },
    {
        "id": 3427833,
        "name": "Tandil",
        "state": "",
        "country": "AR",
        "coord": {
            "lon": -59.13316,
            "lat": -37.321671
        }
    },
    {
        "id": 3427840,
        "name": "Tamangueyú",
        "state": "",
        "country": "AR",
        "coord": {
            "lon": -58.740608,
            "lat": -38.204819
        }
    },
    {
        "id": 3427877,
        "name": "Tacuarendí",
        "state": "",
        "country": "AR",
        "coord": {
            "lon": -59.30212,
            "lat": -28.417789
        }
    },
    {
        "id": 3427885,
        "name": "Tabossi",
        "state": "",
        "country": "AR",
        "coord": {
            "lon": -59.934769,
            "lat": -31.80135
        }
    },
    {
        "id": 3427896,
        "name": "Partido de Suipacha",
        "state": "",
        "country": "AR",
        "coord": {
            "lon": -59.75,
            "lat": -34.75
        }
    },
    {
        "id": 3427897,
        "name": "Suipacha",
        "state": "",
        "country": "AR",
        "coord": {
            "lon": -59.689579,
            "lat": -34.770039
        }
    },
    {
        "id": 3427908,
        "name": "Sosa",
        "state": "",
        "country": "AR",
        "coord": {
            "lon": -59.910809,
            "lat": -31.73657
        }
    },
    {
        "id": 3427916,
        "name": "Solís",
        "state": "",
        "country": "AR",
        "coord": {
            "lon": -59.324879,
            "lat": -34.297569
        }
    },
    {
        "id": 3427949,
        "name": "Siete Palmas",
        "state": "",
        "country": "AR",
        "coord": {
            "lon": -58.332191,
            "lat": -25.20228
        }
    },
    {
        "id": 3427958,
        "name": "Sierra de los Padres",
        "state": "",
        "country": "AR",
        "coord": {
            "lon": -57.77161,
            "lat": -37.95269
        }
    },
    {
        "id": 3427994,
        "name": "Sauce de Luna",
        "state": "",
        "country": "AR",
        "coord": {
            "lon": -59.218719,
            "lat": -31.23794
        }
    },
    {
        "id": 3428003,
        "name": "Departamento de Sauce",
        "state": "",
        "country": "AR",
        "coord": {
            "lon": -58.666672,
            "lat": -30.0
        }
    },
    {
        "id": 3428023,
        "name": "Sauce",
        "state": "",
        "country": "AR",
        "coord": {
            "lon": -58.787769,
            "lat": -30.08671
        }
    },
    {
        "id": 3428050,
        "name": "Sarandí",
        "state": "",
        "country": "AR",
        "coord": {
            "lon": -58.351181,
            "lat": -34.683239
        }
    },
    {
        "id": 3428056,
        "name": "Partido de San Vicente",
        "state": "",
        "country": "AR",
        "coord": {
            "lon": -58.5,
            "lat": -35.083328
        }
    },
    {
        "id": 3428067,
        "name": "San Vicente",
        "state": "",
        "country": "AR",
        "coord": {
            "lon": -58.42276,
            "lat": -35.025002
        }
    },
    {
        "id": 3428068,
        "name": "San Vicente",
        "state": "",
        "country": "AR",
        "coord": {
            "lon": -54.133331,
            "lat": -26.616671
        }
    },
    {
        "id": 3428071,
        "name": "Santo Tomé",
        "state": "",
        "country": "AR",
        "coord": {
            "lon": -56.040771,
            "lat": -28.549391
        }
    },
    {
        "id": 3428075,
        "name": "Santos Lugares",
        "state": "",
        "country": "AR",
        "coord": {
            "lon": -58.545921,
            "lat": -34.600159
        }
    },
    {
        "id": 3428079,
        "name": "Santo Pipó",
        "state": "",
        "country": "AR",
        "coord": {
            "lon": -55.408669,
            "lat": -27.141319
        }
    },
    {
        "id": 3428113,
        "name": "San Telmo",
        "state": "",
        "country": "AR",
        "coord": {
            "lon": -58.37122,
            "lat": -34.619999
        }
    },
    {
        "id": 3428123,
        "name": "Santa Teresita",
        "state": "",
        "country": "AR",
        "coord": {
            "lon": -56.70105,
            "lat": -36.541309
        }
    },
    {
        "id": 3428182,
        "name": "Santa Rosa",
        "state": "",
        "country": "AR",
        "coord": {
            "lon": -58.118912,
            "lat": -28.26318
        }
    },
    {
        "id": 3428264,
        "name": "Santa María",
        "state": "",
        "country": "AR",
        "coord": {
            "lon": -55.38541,
            "lat": -27.903561
        }
    },
    {
        "id": 3428287,
        "name": "Santa Lucía",
        "state": "",
        "country": "AR",
        "coord": {
            "lon": -59.102871,
            "lat": -28.987459
        }
    },
    {
        "id": 3428359,
        "name": "Santa Elena",
        "state": "",
        "country": "AR",
        "coord": {
            "lon": -59.786961,
            "lat": -30.94768
        }
    },
    {
        "id": 3428424,
        "name": "Santa Anita",
        "state": "",
        "country": "AR",
        "coord": {
            "lon": -58.786221,
            "lat": -32.174759
        }
    },
    {
        "id": 3428453,
        "name": "Santa Ana",
        "state": "",
        "country": "AR",
        "coord": {
            "lon": -57.931622,
            "lat": -30.90004
        }
    },
    {
        "id": 3428481,
        "name": "San Salvador",
        "state": "",
        "country": "AR",
        "coord": {
            "lon": -58.505241,
            "lat": -31.62487
        }
    },
    {
        "id": 3428533,
        "name": "Partido de San Pedro",
        "state": "",
        "country": "AR",
        "coord": {
            "lon": -59.75,
            "lat": -33.75
        }
    },
    {
        "id": 3428569,
        "name": "Departamento de San Pedro",
        "state": "",
        "country": "AR",
        "coord": {
            "lon": -54.0,
            "lat": -26.66667
        }
    },
    {
        "id": 3428576,
        "name": "San Pedro",
        "state": "",
        "country": "AR",
        "coord": {
            "lon": -59.666641,
            "lat": -33.679131
        }
    },
    {
        "id": 3428577,
        "name": "San Pedro",
        "state": "",
        "country": "AR",
        "coord": {
            "lon": -54.108421,
            "lat": -26.62207
        }
    },
    {
        "id": 3428609,
        "name": "San Miguel del Monte",
        "state": "",
        "country": "AR",
        "coord": {
            "lon": -58.806751,
            "lat": -35.439621
        }
    },
    {
        "id": 3428638,
        "name": "Departamento de San Miguel",
        "state": "",
        "country": "AR",
        "coord": {
            "lon": -57.5,
            "lat": -27.91667
        }
    },
    {
        "id": 3428644,
        "name": "San Miguel",
        "state": "",
        "country": "AR",
        "coord": {
            "lon": -57.589642,
            "lat": -27.99585
        }
    },
    {
        "id": 3428708,
        "name": "San Luis del Palmar",
        "state": "",
        "country": "AR",
        "coord": {
            "lon": -58.554539,
            "lat": -27.5079
        }
    },
    {
        "id": 3428759,
        "name": "San Lorenzo",
        "state": "",
        "country": "AR",
        "coord": {
            "lon": -58.76733,
            "lat": -28.13306
        }
    },
    {
        "id": 3428775,
        "name": "San Justo",
        "state": "",
        "country": "AR",
        "coord": {
            "lon": -58.560581,
            "lat": -34.676601
        }
    },
    {
        "id": 3428776,
        "name": "San Justo",
        "state": "",
        "country": "AR",
        "coord": {
            "lon": -58.435692,
            "lat": -32.446541
        }
    },
    {
        "id": 3428858,
        "name": "San José de Feliciano",
        "state": "",
        "country": "AR",
        "coord": {
            "lon": -58.751671,
            "lat": -30.38452
        }
    },
    {
        "id": 3428928,
        "name": "San José",
        "state": "",
        "country": "AR",
        "coord": {
            "lon": -55.7826,
            "lat": -27.769791
        }
    },
    {
        "id": 3428973,
        "name": "Departamento de San Javier",
        "state": "",
        "country": "AR",
        "coord": {
            "lon": -59.916672,
            "lat": -30.33333
        }
    },
    {
        "id": 3428975,
        "name": "San Javier",
        "state": "",
        "country": "AR",
        "coord": {
            "lon": -59.931702,
            "lat": -30.57781
        }
    },
    {
        "id": 3428983,
        "name": "Partido de San Isidro",
        "state": "",
        "country": "AR",
        "coord": {
            "lon": -58.583328,
            "lat": -34.5
        }
    },
    {
        "id": 3429014,
        "name": "Departamento de San Ignacio",
        "state": "",
        "country": "AR",
        "coord": {
            "lon": -55.333328,
            "lat": -27.25
        }
    },
    {
        "id": 3429016,
        "name": "San Ignacio",
        "state": "",
        "country": "AR",
        "coord": {
            "lon": -55.533901,
            "lat": -27.255859
        }
    },
    {
        "id": 3429024,
        "name": "San Gustavo",
        "state": "",
        "country": "AR",
        "coord": {
            "lon": -59.398399,
            "lat": -30.68961
        }
    },
    {
        "id": 3429053,
        "name": "San Francisco Solano",
        "state": "",
        "country": "AR",
        "coord": {
            "lon": -58.316669,
            "lat": -34.783329
        }
    },
    {
        "id": 3429054,
        "name": "San Francisco de Laishí",
        "state": "",
        "country": "AR",
        "coord": {
            "lon": -58.63039,
            "lat": -26.24262
        }
    },
    {
        "id": 3429088,
        "name": "Partido de San Fernando",
        "state": "",
        "country": "AR",
        "coord": {
            "lon": -58.542019,
            "lat": -34.445419
        }
    },
    {
        "id": 3429095,
        "name": "San Fernando",
        "state": "",
        "country": "AR",
        "coord": {
            "lon": -58.56279,
            "lat": -34.44104
        }
    },
    {
        "id": 3429156,
        "name": "Departamento de San Cosme",
        "state": "",
        "country": "AR",
        "coord": {
            "lon": -58.5,
            "lat": -27.33333
        }
    },
    {
        "id": 3429157,
        "name": "San Cosme",
        "state": "",
        "country": "AR",
        "coord": {
            "lon": -58.512138,
            "lat": -27.371229
        }
    },
    {
        "id": 3429160,
        "name": "San Clemente del Tuyú",
        "state": "",
        "country": "AR",
        "coord": {
            "lon": -56.723511,
            "lat": -36.356941
        }
    },
    {
        "id": 3429168,
        "name": "Partido de San Cayetano",
        "state": "",
        "country": "AR",
        "coord": {
            "lon": -59.666672,
            "lat": -38.416672
        }
    },
    {
        "id": 3429171,
        "name": "San Cayetano",
        "state": "",
        "country": "AR",
        "coord": {
            "lon": -59.609539,
            "lat": -38.346531
        }
    },
    {
        "id": 3429210,
        "name": "San Carlos",
        "state": "",
        "country": "AR",
        "coord": {
            "lon": -55.897301,
            "lat": -27.745859
        }
    },
    {
        "id": 3429244,
        "name": "San Antonio de Padua",
        "state": "",
        "country": "AR",
        "coord": {
            "lon": -58.707691,
            "lat": -34.664459
        }
    },
    {
        "id": 3429247,
        "name": "San Antonio de Areco",
        "state": "",
        "country": "AR",
        "coord": {
            "lon": -59.5,
            "lat": -34.25
        }
    },
    {
        "id": 3429248,
        "name": "San Antonio de Areco",
        "state": "",
        "country": "AR",
        "coord": {
            "lon": -59.469452,
            "lat": -34.24968
        }
    },
    {
        "id": 3429308,
        "name": "Partido de San Andrés de Giles",
        "state": "",
        "country": "AR",
        "coord": {
            "lon": -59.5,
            "lat": -34.5
        }
    },
    {
        "id": 3429309,
        "name": "San Andrés de Giles",
        "state": "",
        "country": "AR",
        "coord": {
            "lon": -59.443329,
            "lat": -34.449718
        }
    },
    {
        "id": 3429316,
        "name": "San Andrés",
        "state": "",
        "country": "AR",
        "coord": {
            "lon": -58.545292,
            "lat": -34.563091
        }
    },
    {
        "id": 3429331,
        "name": "San Alberto",
        "state": "",
        "country": "AR",
        "coord": {
            "lon": -54.98333,
            "lat": -26.799999
        }
    },
    {
        "id": 3429389,
        "name": "Partido de Saladillo",
        "state": "",
        "country": "AR",
        "coord": {
            "lon": -59.666672,
            "lat": -35.75
        }
    },
    {
        "id": 3429399,
        "name": "Saladillo",
        "state": "",
        "country": "AR",
        "coord": {
            "lon": -59.777882,
            "lat": -35.637081
        }
    },
    {
        "id": 3429402,
        "name": "Departamento de Saladas",
        "state": "",
        "country": "AR",
        "coord": {
            "lon": -58.75,
            "lat": -28.25
        }
    },
    {
        "id": 3429403,
        "name": "Saladas",
        "state": "",
        "country": "AR",
        "coord": {
            "lon": -58.625912,
            "lat": -28.253839
        }
    },
    {
        "id": 3429418,
        "name": "Sáenz Peña",
        "state": "",
        "country": "AR",
        "coord": {
            "lon": -58.530079,
            "lat": -34.600521
        }
    },
    {
        "id": 3429426,
        "name": "Ruiz de Montoya",
        "state": "",
        "country": "AR",
        "coord": {
            "lon": -55.049999,
            "lat": -26.98333
        }
    },
    {
        "id": 3429439,
        "name": "Rosario del Tala",
        "state": "",
        "country": "AR",
        "coord": {
            "lon": -59.145451,
            "lat": -32.30286
        }
    },
    {
        "id": 3429449,
        "name": "Partido de Roque Pérez",
        "state": "",
        "country": "AR",
        "coord": {
            "lon": -59.416672,
            "lat": -35.5
        }
    },
    {
        "id": 3429450,
        "name": "Roque Pérez",
        "state": "",
        "country": "AR",
        "coord": {
            "lon": -59.33271,
            "lat": -35.397942
        }
    },
    {
        "id": 3429458,
        "name": "Romang",
        "state": "",
        "country": "AR",
        "coord": {
            "lon": -59.748058,
            "lat": -29.501619
        }
    },
    {
        "id": 3429493,
        "name": "Río Luján",
        "state": "",
        "country": "AR",
        "coord": {
            "lon": -58.92028,
            "lat": -34.285561
        }
    },
    {
        "id": 3429496,
        "name": "Ringuelet",
        "state": "",
        "country": "AR",
        "coord": {
            "lon": -57.988049,
            "lat": -34.889359
        }
    },
    {
        "id": 3429560,
        "name": "Riachuelo",
        "state": "",
        "country": "AR",
        "coord": {
            "lon": -58.739449,
            "lat": -27.577539
        }
    },
    {
        "id": 3429567,
        "name": "Riacho Eh-Eh",
        "state": "",
        "country": "AR",
        "coord": {
            "lon": -58.2775,
            "lat": -25.362089
        }
    },
    {
        "id": 3429576,
        "name": "Retiro",
        "state": "",
        "country": "AR",
        "coord": {
            "lon": -58.383331,
            "lat": -34.583328
        }
    },
    {
        "id": 3429577,
        "name": "Resistencia",
        "state": "",
        "country": "AR",
        "coord": {
            "lon": -58.983891,
            "lat": -27.46056
        }
    },
    {
        "id": 3429582,
        "name": "Remedios de Escalada",
        "state": "",
        "country": "AR",
        "coord": {
            "lon": -58.382549,
            "lat": -34.724918
        }
    },
    {
        "id": 3429594,
        "name": "Reconquista",
        "state": "",
        "country": "AR",
        "coord": {
            "lon": -59.650002,
            "lat": -29.15
        }
    },
    {
        "id": 3429601,
        "name": "Partido de Rauch",
        "state": "",
        "country": "AR",
        "coord": {
            "lon": -58.833328,
            "lat": -36.583328
        }
    },
    {
        "id": 3429602,
        "name": "Rauch",
        "state": "",
        "country": "AR",
        "coord": {
            "lon": -59.089729,
            "lat": -36.774502
        }
    },
    {
        "id": 3429616,
        "name": "Ramos Otero",
        "state": "",
        "country": "AR",
        "coord": {
            "lon": -58.339401,
            "lat": -37.534382
        }
    },
    {
        "id": 3429635,
        "name": "Rafael Castillo",
        "state": "",
        "country": "AR",
        "coord": {
            "lon": -58.62706,
            "lat": -34.69857
        }
    },
    {
        "id": 3429636,
        "name": "Rafael Calzada",
        "state": "",
        "country": "AR",
        "coord": {
            "lon": -58.354019,
            "lat": -34.791908
        }
    },
    {
        "id": 3429651,
        "name": "Partido de Quilmes",
        "state": "",
        "country": "AR",
        "coord": {
            "lon": -58.25,
            "lat": -34.75
        }
    },
    {
        "id": 3429652,
        "name": "Quilmes",
        "state": "",
        "country": "AR",
        "coord": {
            "lon": -58.252651,
            "lat": -34.724178
        }
    },
    {
        "id": 3429664,
        "name": "Quequén",
        "state": "",
        "country": "AR",
        "coord": {
            "lon": -58.7155,
            "lat": -38.53532
        }
    },
    {
        "id": 3429688,
        "name": "Punta Lara",
        "state": "",
        "country": "AR",
        "coord": {
            "lon": -57.98455,
            "lat": -34.80954
        }
    },
    {
        "id": 3429703,
        "name": "Villa Pueyrredón",
        "state": "",
        "country": "AR",
        "coord": {
            "lon": -58.5,
            "lat": -34.583328
        }
    },
    {
        "id": 3429710,
        "name": "Puerto Yeruá",
        "state": "",
        "country": "AR",
        "coord": {
            "lon": -58.01527,
            "lat": -31.53713
        }
    },
    {
        "id": 3429712,
        "name": "Puerto Wanda",
        "state": "",
        "country": "AR",
        "coord": {
            "lon": -54.599411,
            "lat": -25.963739
        }
    },
    {
        "id": 3429713,
        "name": "Puerto Vilelas",
        "state": "",
        "country": "AR",
        "coord": {
            "lon": -58.93906,
            "lat": -27.514139
        }
    },
    {
        "id": 3429721,
        "name": "Puerto Tirol",
        "state": "",
        "country": "AR",
        "coord": {
            "lon": -59.082062,
            "lat": -27.372181
        }
    },
    {
        "id": 3429730,
        "name": "Puerto Ruiz",
        "state": "",
        "country": "AR",
        "coord": {
            "lon": -59.36404,
            "lat": -33.221218
        }
    },
    {
        "id": 3429732,
        "name": "Puerto Rico",
        "state": "",
        "country": "AR",
        "coord": {
            "lon": -55.024021,
            "lat": -26.79598
        }
    },
    {
        "id": 3429733,
        "name": "Puerto Reconquista",
        "state": "",
        "country": "AR",
        "coord": {
            "lon": -59.586418,
            "lat": -29.235241
        }
    },
    {
        "id": 3429738,
        "name": "Puerto Piray",
        "state": "",
        "country": "AR",
        "coord": {
            "lon": -54.71476,
            "lat": -26.467791
        }
    },
    {
        "id": 3429741,
        "name": "Puerto Pilcomayo",
        "state": "",
        "country": "AR",
        "coord": {
            "lon": -57.652279,
            "lat": -25.36871
        }
    },
    {
        "id": 3429745,
        "name": "Puerto Paulito",
        "state": "",
        "country": "AR",
        "coord": {
            "lon": -54.59853,
            "lat": -25.80266
        }
    },
    {
        "id": 3429764,
        "name": "Puerto Libertad",
        "state": "",
        "country": "AR",
        "coord": {
            "lon": -54.620892,
            "lat": -25.91641
        }
    },
    {
        "id": 3429765,
        "name": "Puerto Leoni",
        "state": "",
        "country": "AR",
        "coord": {
            "lon": -55.165699,
            "lat": -26.96069
        }
    },
    {
        "id": 3429777,
        "name": "Puerto Iguazú",
        "state": "",
        "country": "AR",
        "coord": {
            "lon": -54.573551,
            "lat": -25.599119
        }
    },
    {
        "id": 3429778,
        "name": "Puerto Ibicuy",
        "state": "",
        "country": "AR",
        "coord": {
            "lon": -59.183331,
            "lat": -33.73333
        }
    },
    {
        "id": 3429786,
        "name": "Puerto Esperanza",
        "state": "",
        "country": "AR",
        "coord": {
            "lon": -54.673061,
            "lat": -26.015169
        }
    },
    {
        "id": 3429790,
        "name": "Puerto Eldorado",
        "state": "",
        "country": "AR",
        "coord": {
            "lon": -54.69463,
            "lat": -26.408421
        }
    },
    {
        "id": 3429798,
        "name": "Puerto Canoas",
        "state": "",
        "country": "AR",
        "coord": {
            "lon": -54.428051,
            "lat": -25.70392
        }
    },
    {
        "id": 3429801,
        "name": "Puerto Bermejo",
        "state": "",
        "country": "AR",
        "coord": {
            "lon": -58.505379,
            "lat": -26.93173
        }
    },
    {
        "id": 3429808,
        "name": "Puerto Algarrobo",
        "state": "",
        "country": "AR",
        "coord": {
            "lon": -59.57972,
            "lat": -30.642139
        }
    },
    {
        "id": 3429814,
        "name": "Puente Cascallares",
        "state": "",
        "country": "AR",
        "coord": {
            "lon": -58.819618,
            "lat": -34.686218
        }
    },
    {
        "id": 3429820,
        "name": "Pueblo Libertador",
        "state": "",
        "country": "AR",
        "coord": {
            "lon": -59.389809,
            "lat": -30.220869
        }
    },
    {
        "id": 3429843,
        "name": "Pronunciamiento",
        "state": "",
        "country": "AR",
        "coord": {
            "lon": -58.432869,
            "lat": -32.346169
        }
    },
    {
        "id": 3429861,
        "name": "Presidente Rivadavia",
        "state": "",
        "country": "AR",
        "coord": {
            "lon": -58.433331,
            "lat": -34.650002
        }
    },
    {
        "id": 3429864,
        "name": "Presidencia Roca",
        "state": "",
        "country": "AR",
        "coord": {
            "lon": -59.595409,
            "lat": -26.1409
        }
    },
    {
        "id": 3429865,
        "name": "Departamento de Presidencia de la Plaza",
        "state": "",
        "country": "AR",
        "coord": {
            "lon": -59.75,
            "lat": -27.0
        }
    },
    {
        "id": 3429866,
        "name": "Presidencia de la Plaza",
        "state": "",
        "country": "AR",
        "coord": {
            "lon": -59.84243,
            "lat": -27.001471
        }
    },
    {
        "id": 3429886,
        "name": "Posadas",
        "state": "",
        "country": "AR",
        "coord": {
            "lon": -55.89608,
            "lat": -27.367081
        }
    },
    {
        "id": 3429902,
        "name": "Pontevedra",
        "state": "",
        "country": "AR",
        "coord": {
            "lon": -58.686958,
            "lat": -34.749741
        }
    },
    {
        "id": 3429933,
        "name": "Plátanos",
        "state": "",
        "country": "AR",
        "coord": {
            "lon": -58.161049,
            "lat": -34.784012
        }
    },
    {
        "id": 3429948,
        "name": "Departamento de Pirané",
        "state": "",
        "country": "AR",
        "coord": {
            "lon": -59.166672,
            "lat": -25.66667
        }
    },
    {
        "id": 3429949,
        "name": "Pirané",
        "state": "",
        "country": "AR",
        "coord": {
            "lon": -59.108791,
            "lat": -25.732389
        }
    },
    {
        "id": 3429959,
        "name": "Piñero",
        "state": "",
        "country": "AR",
        "coord": {
            "lon": -58.75,
            "lat": -34.533329
        }
    },
    {
        "id": 3429971,
        "name": "Pinamar",
        "state": "",
        "country": "AR",
        "coord": {
            "lon": -56.861401,
            "lat": -37.107941
        }
    },
    {
        "id": 3429996,
        "name": "Piedras Blancas",
        "state": "",
        "country": "AR",
        "coord": {
            "lon": -59.959572,
            "lat": -31.18623
        }
    },
    {
        "id": 3430015,
        "name": "Picada Gobernador López",
        "state": "",
        "country": "AR",
        "coord": {
            "lon": -55.24585,
            "lat": -27.670691
        }
    },
    {
        "id": 3430029,
        "name": "Perugorría",
        "state": "",
        "country": "AR",
        "coord": {
            "lon": -58.610592,
            "lat": -29.34132
        }
    },
    {
        "id": 3430064,
        "name": "Pedro R. Fernández",
        "state": "",
        "country": "AR",
        "coord": {
            "lon": -58.65583,
            "lat": -28.750971
        }
    },
    {
        "id": 3430067,
        "name": "Pedernales",
        "state": "",
        "country": "AR",
        "coord": {
            "lon": -59.648998,
            "lat": -35.227711
        }
    },
    {
        "id": 3430087,
        "name": "Paternal",
        "state": "",
        "country": "AR",
        "coord": {
            "lon": -58.471561,
            "lat": -34.595421
        }
    },
    {
        "id": 3430102,
        "name": "Paso del Rey",
        "state": "",
        "country": "AR",
        "coord": {
            "lon": -58.75898,
            "lat": -34.656219
        }
    },
    {
        "id": 3430103,
        "name": "Departamento de Paso de los Libres",
        "state": "",
        "country": "AR",
        "coord": {
            "lon": -57.25,
            "lat": -29.66667
        }
    },
    {
        "id": 3430104,
        "name": "Paso de los Libres",
        "state": "",
        "country": "AR",
        "coord": {
            "lon": -57.089909,
            "lat": -29.71311
        }
    },
    {
        "id": 3430105,
        "name": "Paso de la Patria",
        "state": "",
        "country": "AR",
        "coord": {
            "lon": -58.571972,
            "lat": -27.316759
        }
    },
    {
        "id": 3430106,
        "name": "Paso de la Laguna",
        "state": "",
        "country": "AR",
        "coord": {
            "lon": -59.166672,
            "lat": -31.799999
        }
    },
    {
        "id": 3430114,
        "name": "Parque Patricios",
        "state": "",
        "country": "AR",
        "coord": {
            "lon": -58.410488,
            "lat": -34.640518
        }
    },
    {
        "id": 3430116,
        "name": "Parque Chacabuco",
        "state": "",
        "country": "AR",
        "coord": {
            "lon": -58.443218,
            "lat": -34.634129
        }
    },
    {
        "id": 3430156,
        "name": "Parada Leis",
        "state": "",
        "country": "AR",
        "coord": {
            "lon": -55.840698,
            "lat": -27.601021
        }
    },
    {
        "id": 3430178,
        "name": "Panambí",
        "state": "",
        "country": "AR",
        "coord": {
            "lon": -54.915138,
            "lat": -27.7237
        }
    },
    {
        "id": 3430180,
        "name": "Pampa del Indio",
        "state": "",
        "country": "AR",
        "coord": {
            "lon": -59.91898,
            "lat": -26.06468
        }
    },
    {
        "id": 3430182,
        "name": "Pampa Almirón",
        "state": "",
        "country": "AR",
        "coord": {
            "lon": -59.133331,
            "lat": -26.700001
        }
    },
    {
        "id": 3430186,
        "name": "Palo Santo",
        "state": "",
        "country": "AR",
        "coord": {
            "lon": -59.337811,
            "lat": -25.56332
        }
    },
    {
        "id": 3430219,
        "name": "Palmar Grande",
        "state": "",
        "country": "AR",
        "coord": {
            "lon": -57.90057,
            "lat": -27.94195
        }
    },
    {
        "id": 3430234,
        "name": "Palermo",
        "state": "",
        "country": "AR",
        "coord": {
            "lon": -58.430531,
            "lat": -34.588558
        }
    },
    {
        "id": 3430239,
        "name": "Palavecino",
        "state": "",
        "country": "AR",
        "coord": {
            "lon": -58.640598,
            "lat": -32.946079
        }
    },
    {
        "id": 3430272,
        "name": "Ostende",
        "state": "",
        "country": "AR",
        "coord": {
            "lon": -56.883518,
            "lat": -37.125221
        }
    },
    {
        "id": 3430287,
        "name": "Open Door",
        "state": "",
        "country": "AR",
        "coord": {
            "lon": -59.07719,
            "lat": -34.492359
        }
    },
    {
        "id": 3430296,
        "name": "Ombucito",
        "state": "",
        "country": "AR",
        "coord": {
            "lon": -57.11924,
            "lat": -29.66555
        }
    },
    {
        "id": 3430310,
        "name": "Olivos",
        "state": "",
        "country": "AR",
        "coord": {
            "lon": -58.487019,
            "lat": -34.507469
        }
    },
    {
        "id": 3430339,
        "name": "Departamento de Oberá",
        "state": "",
        "country": "AR",
        "coord": {
            "lon": -55.083328,
            "lat": -27.549999
        }
    },
    {
        "id": 3430340,
        "name": "Oberá",
        "state": "",
        "country": "AR",
        "coord": {
            "lon": -55.119942,
            "lat": -27.487061
        }
    },
    {
        "id": 3430383,
        "name": "Nueve de Julio",
        "state": "",
        "country": "AR",
        "coord": {
            "lon": -58.8265,
            "lat": -28.840509
        }
    },
    {
        "id": 3430402,
        "name": "Nuestra Señora del Rosario de Caa Catí",
        "state": "",
        "country": "AR",
        "coord": {
            "lon": -57.620731,
            "lat": -27.750719
        }
    },
    {
        "id": 3430409,
        "name": "Norberto de la Riestra",
        "state": "",
        "country": "AR",
        "coord": {
            "lon": -59.77169,
            "lat": -35.273281
        }
    },
    {
        "id": 3430443,
        "name": "Necochea",
        "state": "",
        "country": "AR",
        "coord": {
            "lon": -58.736752,
            "lat": -38.54726
        }
    },
    {
        "id": 3430454,
        "name": "Partido de Navarro",
        "state": "",
        "country": "AR",
        "coord": {
            "lon": -59.5,
            "lat": -35.0
        }
    },
    {
        "id": 3430457,
        "name": "Navarro",
        "state": "",
        "country": "AR",
        "coord": {
            "lon": -59.276989,
            "lat": -35.005589
        }
    },
    {
        "id": 3430486,
        "name": "Napaleofú",
        "state": "",
        "country": "AR",
        "coord": {
            "lon": -58.743649,
            "lat": -37.62468
        }
    },
    {
        "id": 3430513,
        "name": "Muñiz",
        "state": "",
        "country": "AR",
        "coord": {
            "lon": -58.698399,
            "lat": -34.546749
        }
    },
    {
        "id": 3430544,
        "name": "Partido de Morón",
        "state": "",
        "country": "AR",
        "coord": {
            "lon": -58.621941,
            "lat": -34.65139
        }
    },
    {
        "id": 3430545,
        "name": "Morón",
        "state": "",
        "country": "AR",
        "coord": {
            "lon": -58.619751,
            "lat": -34.653439
        }
    },
    {
        "id": 3430550,
        "name": "Partido de Moreno",
        "state": "",
        "country": "AR",
        "coord": {
            "lon": -58.790588,
            "lat": -34.634899
        }
    },
    {
        "id": 3430568,
        "name": "Moquehuá",
        "state": "",
        "country": "AR",
        "coord": {
            "lon": -59.775051,
            "lat": -35.091801
        }
    },
    {
        "id": 3430596,
        "name": "Monte Castro",
        "state": "",
        "country": "AR",
        "coord": {
            "lon": -58.5,
            "lat": -34.616669
        }
    },
    {
        "id": 3430597,
        "name": "Departamento de Monte Caseros",
        "state": "",
        "country": "AR",
        "coord": {
            "lon": -57.833328,
            "lat": -30.25
        }
    },
    {
        "id": 3430598,
        "name": "Monte Caseros",
        "state": "",
        "country": "AR",
        "coord": {
            "lon": -57.636261,
            "lat": -30.25359
        }
    },
    {
        "id": 3430599,
        "name": "Departamento de Montecarlo",
        "state": "",
        "country": "AR",
        "coord": {
            "lon": -54.583328,
            "lat": -26.716669
        }
    },
    {
        "id": 3430601,
        "name": "Montecarlo",
        "state": "",
        "country": "AR",
        "coord": {
            "lon": -54.757,
            "lat": -26.5662
        }
    },
    {
        "id": 3430631,
        "name": "Mojón Grande",
        "state": "",
        "country": "AR",
        "coord": {
            "lon": -55.156311,
            "lat": -27.711639
        }
    },
    {
        "id": 3430634,
        "name": "Mojones Norte",
        "state": "",
        "country": "AR",
        "coord": {
            "lon": -59.201801,
            "lat": -31.509741
        }
    },
    {
        "id": 3430648,
        "name": "Mocoretá",
        "state": "",
        "country": "AR",
        "coord": {
            "lon": -57.96344,
            "lat": -30.61891
        }
    },
    {
        "id": 3430657,
        "name": "Misiones Province",
        "state": "",
        "country": "AR",
        "coord": {
            "lon": -55.0,
            "lat": -27.0
        }
    },
    {
        "id": 3430668,
        "name": "Miramar",
        "state": "",
        "country": "AR",
        "coord": {
            "lon": -57.836689,
            "lat": -38.268761
        }
    },
    {
        "id": 3430679,
        "name": "Ministro Rivadavia",
        "state": "",
        "country": "AR",
        "coord": {
            "lon": -58.366192,
            "lat": -34.841042
        }
    },
    {
        "id": 3430705,
        "name": "Partido de Mercedes",
        "state": "",
        "country": "AR",
        "coord": {
            "lon": -59.416672,
            "lat": -34.666672
        }
    },
    {
        "id": 3430708,
        "name": "Mercedes",
        "state": "",
        "country": "AR",
        "coord": {
            "lon": -59.430679,
            "lat": -34.651459
        }
    },
    {
        "id": 3430709,
        "name": "Mercedes",
        "state": "",
        "country": "AR",
        "coord": {
            "lon": -58.078949,
            "lat": -29.18186
        }
    },
    {
        "id": 3430756,
        "name": "Mechongué",
        "state": "",
        "country": "AR",
        "coord": {
            "lon": -58.224319,
            "lat": -38.14785
        }
    },
    {
        "id": 3430759,
        "name": "Departamento de Mburucuyá",
        "state": "",
        "country": "AR",
        "coord": {
            "lon": -58.25,
            "lat": -28.0
        }
    },
    {
        "id": 3430760,
        "name": "Mburucuyá",
        "state": "",
        "country": "AR",
        "coord": {
            "lon": -58.224491,
            "lat": -28.045389
        }
    },
    {
        "id": 3430780,
        "name": "Máximo Paz",
        "state": "",
        "country": "AR",
        "coord": {
            "lon": -58.617882,
            "lat": -34.938782
        }
    },
    {
        "id": 3430782,
        "name": "Matheu",
        "state": "",
        "country": "AR",
        "coord": {
            "lon": -58.83292,
            "lat": -34.385448
        }
    },
    {
        "id": 3430787,
        "name": "Mataderos",
        "state": "",
        "country": "AR",
        "coord": {
            "lon": -58.5,
            "lat": -34.666672
        }
    },
    {
        "id": 3430798,
        "name": "Mártires",
        "state": "",
        "country": "AR",
        "coord": {
            "lon": -55.383331,
            "lat": -27.433331
        }
    },
    {
        "id": 3430813,
        "name": "Martínez",
        "state": "",
        "country": "AR",
        "coord": {
            "lon": -58.516788,
            "lat": -34.493969
        }
    },
    {
        "id": 3430834,
        "name": "Mariano Moreno",
        "state": "",
        "country": "AR",
        "coord": {
            "lon": -58.929169,
            "lat": -34.463329
        }
    },
    {
        "id": 3430836,
        "name": "Mariano I. Loza",
        "state": "",
        "country": "AR",
        "coord": {
            "lon": -58.194359,
            "lat": -29.37668
        }
    },
    {
        "id": 3430838,
        "name": "Mariano Acosta",
        "state": "",
        "country": "AR",
        "coord": {
            "lon": -58.793091,
            "lat": -34.719872
        }
    },
    {
        "id": 3430857,
        "name": "Margarita Belén",
        "state": "",
        "country": "AR",
        "coord": {
            "lon": -58.972191,
            "lat": -27.2616
        }
    },
    {
        "id": 3430862,
        "name": "Mar del Sur",
        "state": "",
        "country": "AR",
        "coord": {
            "lon": -57.990799,
            "lat": -38.34288
        }
    },
    {
        "id": 3430863,
        "name": "Mar del Plata",
        "state": "",
        "country": "AR",
        "coord": {
            "lon": -57.557541,
            "lat": -38.002281
        }
    },
    {
        "id": 3430867,
        "name": "Partido de Marcos Paz",
        "state": "",
        "country": "AR",
        "coord": {
            "lon": -58.833328,
            "lat": -34.833328
        }
    },
    {
        "id": 3430868,
        "name": "Marcos Paz",
        "state": "",
        "country": "AR",
        "coord": {
            "lon": -58.837399,
            "lat": -34.780628
        }
    },
    {
        "id": 3430876,
        "name": "Manzone",
        "state": "",
        "country": "AR",
        "coord": {
            "lon": -58.868252,
            "lat": -34.484619
        }
    },
    {
        "id": 3430940,
        "name": "Malabrigo",
        "state": "",
        "country": "AR",
        "coord": {
            "lon": -59.96957,
            "lat": -29.346359
        }
    },
    {
        "id": 3430943,
        "name": "Makallé",
        "state": "",
        "country": "AR",
        "coord": {
            "lon": -59.286961,
            "lat": -27.206869
        }
    },
    {
        "id": 3430946,
        "name": "Maipú",
        "state": "",
        "country": "AR",
        "coord": {
            "lon": -57.880939,
            "lat": -36.86274
        }
    },
    {
        "id": 3430951,
        "name": "Partido de Magdalena",
        "state": "",
        "country": "AR",
        "coord": {
            "lon": -57.5,
            "lat": -35.25
        }
    },
    {
        "id": 3430957,
        "name": "Magdalena",
        "state": "",
        "country": "AR",
        "coord": {
            "lon": -57.513008,
            "lat": -35.08065
        }
    },
    {
        "id": 3430968,
        "name": "Maciá",
        "state": "",
        "country": "AR",
        "coord": {
            "lon": -59.399471,
            "lat": -32.172199
        }
    },
    {
        "id": 3430975,
        "name": "Lynch",
        "state": "",
        "country": "AR",
        "coord": {
            "lon": -58.524929,
            "lat": -34.59256
        }
    },
    {
        "id": 3430982,
        "name": "Partido de Luján",
        "state": "",
        "country": "AR",
        "coord": {
            "lon": -59.166672,
            "lat": -34.583328
        }
    },
    {
        "id": 3430988,
        "name": "Luján",
        "state": "",
        "country": "AR",
        "coord": {
            "lon": -59.105,
            "lat": -34.570278
        }
    },
    {
        "id": 3430990,
        "name": "Luis J. García",
        "state": "",
        "country": "AR",
        "coord": {
            "lon": -58.466671,
            "lat": -34.683331
        }
    },
    {
        "id": 3430992,
        "name": "Luis Guillón",
        "state": "",
        "country": "AR",
        "coord": {
            "lon": -58.449471,
            "lat": -34.79882
        }
    },
    {
        "id": 3431002,
        "name": "Lucas Sur",
        "state": "",
        "country": "AR",
        "coord": {
            "lon": -59.036709,
            "lat": -31.6551
        }
    },
    {
        "id": 3431005,
        "name": "Lucas González",
        "state": "",
        "country": "AR",
        "coord": {
            "lon": -59.530128,
            "lat": -32.3843
        }
    },
    {
        "id": 3431161,
        "name": "Los Helechos",
        "state": "",
        "country": "AR",
        "coord": {
            "lon": -55.076832,
            "lat": -27.5576
        }
    },
    {
        "id": 3431184,
        "name": "Los Conquistadores",
        "state": "",
        "country": "AR",
        "coord": {
            "lon": -58.467731,
            "lat": -30.590799
        }
    },
    {
        "id": 3431188,
        "name": "Los Charrúas",
        "state": "",
        "country": "AR",
        "coord": {
            "lon": -58.18774,
            "lat": -31.17548
        }
    },
    {
        "id": 3431204,
        "name": "Los Cardales",
        "state": "",
        "country": "AR",
        "coord": {
            "lon": -58.984322,
            "lat": -34.32814
        }
    },
    {
        "id": 3431239,
        "name": "Los Acantilados",
        "state": "",
        "country": "AR",
        "coord": {
            "lon": -57.600189,
            "lat": -38.116051
        }
    },
    {
        "id": 3431244,
        "name": "Loreto",
        "state": "",
        "country": "AR",
        "coord": {
            "lon": -57.275311,
            "lat": -27.768339
        }
    },
    {
        "id": 3431245,
        "name": "Loreto",
        "state": "",
        "country": "AR",
        "coord": {
            "lon": -55.522251,
            "lat": -27.336349
        }
    },
    {
        "id": 3431259,
        "name": "Longchamps",
        "state": "",
        "country": "AR",
        "coord": {
            "lon": -58.385471,
            "lat": -34.856758
        }
    },
    {
        "id": 3431266,
        "name": "Loma Verde",
        "state": "",
        "country": "AR",
        "coord": {
            "lon": -58.403782,
            "lat": -35.273682
        }
    },
    {
        "id": 3431270,
        "name": "Partido de Lomas de Zamora",
        "state": "",
        "country": "AR",
        "coord": {
            "lon": -58.416672,
            "lat": -34.75
        }
    },
    {
        "id": 3431271,
        "name": "Lomas de Zamora",
        "state": "",
        "country": "AR",
        "coord": {
            "lon": -58.406319,
            "lat": -34.76088
        }
    },
    {
        "id": 3431272,
        "name": "Lomas de Vallejos",
        "state": "",
        "country": "AR",
        "coord": {
            "lon": -57.918499,
            "lat": -27.73501
        }
    },
    {
        "id": 3431309,
        "name": "Partido de Lobos",
        "state": "",
        "country": "AR",
        "coord": {
            "lon": -59.166672,
            "lat": -35.25
        }
    },
    {
        "id": 3431313,
        "name": "Lobos",
        "state": "",
        "country": "AR",
        "coord": {
            "lon": -59.089748,
            "lat": -35.182861
        }
    },
    {
        "id": 3431318,
        "name": "Partido de Lobería",
        "state": "",
        "country": "AR",
        "coord": {
            "lon": -58.75,
            "lat": -38.083328
        }
    },
    {
        "id": 3431321,
        "name": "Lobería",
        "state": "",
        "country": "AR",
        "coord": {
            "lon": -58.791302,
            "lat": -38.155739
        }
    },
    {
        "id": 3431325,
        "name": "Llavallol",
        "state": "",
        "country": "AR",
        "coord": {
            "lon": -58.43092,
            "lat": -34.789558
        }
    },
    {
        "id": 3431333,
        "name": "Liniers",
        "state": "",
        "country": "AR",
        "coord": {
            "lon": -58.523861,
            "lat": -34.64286
        }
    },
    {
        "id": 3431366,
        "name": "Libertad",
        "state": "",
        "country": "AR",
        "coord": {
            "lon": -58.680099,
            "lat": -34.688911
        }
    },
    {
        "id": 3431367,
        "name": "Libertad",
        "state": "",
        "country": "AR",
        "coord": {
            "lon": -57.820202,
            "lat": -30.042999
        }
    },
    {
        "id": 3431460,
        "name": "La Verde",
        "state": "",
        "country": "AR",
        "coord": {
            "lon": -59.37352,
            "lat": -27.126341
        }
    },
    {
        "id": 3431606,
        "name": "Las Toscas",
        "state": "",
        "country": "AR",
        "coord": {
            "lon": -59.25795,
            "lat": -28.3529
        }
    },
    {
        "id": 3431608,
        "name": "Las Toninas",
        "state": "",
        "country": "AR",
        "coord": {
            "lon": -56.700001,
            "lat": -36.48333
        }
    },
    {
        "id": 3431775,
        "name": "Las Garzas",
        "state": "",
        "country": "AR",
        "coord": {
            "lon": -59.51667,
            "lat": -28.83333
        }
    },
    {
        "id": 3431777,
        "name": "Las Garcitas",
        "state": "",
        "country": "AR",
        "coord": {
            "lon": -59.799999,
            "lat": -26.58333
        }
    },
    {
        "id": 3431916,
        "name": "Larroque",
        "state": "",
        "country": "AR",
        "coord": {
            "lon": -59.001251,
            "lat": -33.03595
        }
    },
    {
        "id": 3432039,
        "name": "Partido de La Plata",
        "state": "",
        "country": "AR",
        "coord": {
            "lon": -58.0,
            "lat": -35.0
        }
    },
    {
        "id": 3432043,
        "name": "La Plata",
        "state": "",
        "country": "AR",
        "coord": {
            "lon": -57.954529,
            "lat": -34.921452
        }
    },
    {
        "id": 3432077,
        "name": "Departamento de La Paz",
        "state": "",
        "country": "AR",
        "coord": {
            "lon": -59.416672,
            "lat": -30.83333
        }
    },
    {
        "id": 3432079,
        "name": "La Paz",
        "state": "",
        "country": "AR",
        "coord": {
            "lon": -59.64566,
            "lat": -30.74485
        }
    },
    {
        "id": 3432122,
        "name": "Lapachito",
        "state": "",
        "country": "AR",
        "coord": {
            "lon": -59.38604,
            "lat": -27.159981
        }
    },
    {
        "id": 3432144,
        "name": "Lanteri",
        "state": "",
        "country": "AR",
        "coord": {
            "lon": -59.63681,
            "lat": -28.84141
        }
    },
    {
        "id": 3432355,
        "name": "La Leonesa",
        "state": "",
        "country": "AR",
        "coord": {
            "lon": -58.703468,
            "lat": -27.037861
        }
    },
    {
        "id": 3432463,
        "name": "Laguna Naick-Neck",
        "state": "",
        "country": "AR",
        "coord": {
            "lon": -58.09383,
            "lat": -25.24769
        }
    },
    {
        "id": 3432466,
        "name": "Laguna Limpia",
        "state": "",
        "country": "AR",
        "coord": {
            "lon": -59.680828,
            "lat": -26.495649
        }
    },
    {
        "id": 3432471,
        "name": "Laguna Brava",
        "state": "",
        "country": "AR",
        "coord": {
            "lon": -58.716839,
            "lat": -27.49567
        }
    },
    {
        "id": 3432555,
        "name": "Laferrere",
        "state": "",
        "country": "AR",
        "coord": {
            "lon": -58.58791,
            "lat": -34.748299
        }
    },
    {
        "id": 3432598,
        "name": "La Estafeta",
        "state": "",
        "country": "AR",
        "coord": {
            "lon": -57.640072,
            "lat": -38.162361
        }
    },
    {
        "id": 3432653,
        "name": "La Escondida",
        "state": "",
        "country": "AR",
        "coord": {
            "lon": -59.447842,
            "lat": -27.107241
        }
    },
    {
        "id": 3432707,
        "name": "La Eduvigis",
        "state": "",
        "country": "AR",
        "coord": {
            "lon": -59.06842,
            "lat": -26.85545
        }
    },
    {
        "id": 3432760,
        "name": "La Cruz",
        "state": "",
        "country": "AR",
        "coord": {
            "lon": -56.643261,
            "lat": -29.174431
        }
    },
    {
        "id": 3432768,
        "name": "La Criolla",
        "state": "",
        "country": "AR",
        "coord": {
            "lon": -58.105579,
            "lat": -31.269039
        }
    },
    {
        "id": 3432790,
        "name": "La Constancia",
        "state": "",
        "country": "AR",
        "coord": {
            "lon": -58.760052,
            "lat": -37.226219
        }
    },
    {
        "id": 3432990,
        "name": "Labardén",
        "state": "",
        "country": "AR",
        "coord": {
            "lon": -58.103779,
            "lat": -36.947491
        }
    },
    {
        "id": 3433282,
        "name": "Jubileo",
        "state": "",
        "country": "AR",
        "coord": {
            "lon": -58.63385,
            "lat": -31.73358
        }
    },
    {
        "id": 3433291,
        "name": "Juan Pujol",
        "state": "",
        "country": "AR",
        "coord": {
            "lon": -57.856121,
            "lat": -30.41873
        }
    },
    {
        "id": 3433293,
        "name": "Juan María Gutiérrez",
        "state": "",
        "country": "AR",
        "coord": {
            "lon": -58.190182,
            "lat": -34.840092
        }
    },
    {
        "id": 3433319,
        "name": "José Santos Arévalo",
        "state": "",
        "country": "AR",
        "coord": {
            "lon": -59.223129,
            "lat": -35.17421
        }
    },
    {
        "id": 3433321,
        "name": "José Mármol",
        "state": "",
        "country": "AR",
        "coord": {
            "lon": -58.374889,
            "lat": -34.787998
        }
    },
    {
        "id": 3433340,
        "name": "Jeppener",
        "state": "",
        "country": "AR",
        "coord": {
            "lon": -58.19902,
            "lat": -35.278431
        }
    },
    {
        "id": 3433347,
        "name": "Villa Flandria",
        "state": "",
        "country": "AR",
        "coord": {
            "lon": -59.17778,
            "lat": -34.597431
        }
    },
    {
        "id": 3433349,
        "name": "Jardín América",
        "state": "",
        "country": "AR",
        "coord": {
            "lon": -55.226978,
            "lat": -27.043461
        }
    },
    {
        "id": 3433359,
        "name": "Ituzaingó",
        "state": "",
        "country": "AR",
        "coord": {
            "lon": -58.65836,
            "lat": -34.655819
        }
    },
    {
        "id": 3433362,
        "name": "Departamento de Itatí",
        "state": "",
        "country": "AR",
        "coord": {
            "lon": -58.0,
            "lat": -27.33333
        }
    },
    {
        "id": 3433363,
        "name": "Itatí",
        "state": "",
        "country": "AR",
        "coord": {
            "lon": -58.244579,
            "lat": -27.27043
        }
    },
    {
        "id": 3433373,
        "name": "Itá Ibaté",
        "state": "",
        "country": "AR",
        "coord": {
            "lon": -57.337582,
            "lat": -27.42573
        }
    },
    {
        "id": 3433424,
        "name": "Isidro Casanova",
        "state": "",
        "country": "AR",
        "coord": {
            "lon": -58.590408,
            "lat": -34.699329
        }
    },
    {
        "id": 3433456,
        "name": "Ingeniero Otamendi",
        "state": "",
        "country": "AR",
        "coord": {
            "lon": -58.86417,
            "lat": -34.234169
        }
    },
    {
        "id": 3433461,
        "name": "Ingeniero Maschwitz",
        "state": "",
        "country": "AR",
        "coord": {
            "lon": -58.737621,
            "lat": -34.38839
        }
    },
    {
        "id": 3433466,
        "name": "Ingeniero Budge",
        "state": "",
        "country": "AR",
        "coord": {
            "lon": -58.458462,
            "lat": -34.719589
        }
    },
    {
        "id": 3433487,
        "name": "Departamento de Iguazú",
        "state": "",
        "country": "AR",
        "coord": {
            "lon": -54.366669,
            "lat": -25.866671
        }
    },
    {
        "id": 3433513,
        "name": "Ibarreta",
        "state": "",
        "country": "AR",
        "coord": {
            "lon": -59.858509,
            "lat": -25.21438
        }
    },
    {
        "id": 3433522,
        "name": "Hurlingham",
        "state": "",
        "country": "AR",
        "coord": {
            "lon": -58.63905,
            "lat": -34.58831
        }
    },
    {
        "id": 3433564,
        "name": "Herrera",
        "state": "",
        "country": "AR",
        "coord": {
            "lon": -58.624619,
            "lat": -32.435162
        }
    },
    {
        "id": 3433567,
        "name": "Herradura",
        "state": "",
        "country": "AR",
        "coord": {
            "lon": -58.311981,
            "lat": -26.487049
        }
    },
    {
        "id": 3433575,
        "name": "Herlitzka",
        "state": "",
        "country": "AR",
        "coord": {
            "lon": -58.255569,
            "lat": -27.565161
        }
    },
    {
        "id": 3433579,
        "name": "Heavy",
        "state": "",
        "country": "AR",
        "coord": {
            "lon": -59.65694,
            "lat": -34.43066
        }
    },
    {
        "id": 3433580,
        "name": "Hasenkamp",
        "state": "",
        "country": "AR",
        "coord": {
            "lon": -59.835449,
            "lat": -31.51226
        }
    },
    {
        "id": 3433648,
        "name": "Guaraní",
        "state": "",
        "country": "AR",
        "coord": {
            "lon": -55.166672,
            "lat": -27.51667
        }
    },
    {
        "id": 3433658,
        "name": "Gualeguaychú",
        "state": "",
        "country": "AR",
        "coord": {
            "lon": -58.51722,
            "lat": -33.00938
        }
    },
    {
        "id": 3433661,
        "name": "Departamento de Gualeguay",
        "state": "",
        "country": "AR",
        "coord": {
            "lon": -59.583328,
            "lat": -33.0
        }
    },
    {
        "id": 3433663,
        "name": "Gualeguay",
        "state": "",
        "country": "AR",
        "coord": {
            "lon": -59.309662,
            "lat": -33.14156
        }
    },
    {
        "id": 3433708,
        "name": "Grand Bourg",
        "state": "",
        "country": "AR",
        "coord": {
            "lon": -58.72913,
            "lat": -34.482361
        }
    },
    {
        "id": 3433712,
        "name": "Goyeneche",
        "state": "",
        "country": "AR",
        "coord": {
            "lon": -58.72353,
            "lat": -35.342949
        }
    },
    {
        "id": 3433715,
        "name": "Goya",
        "state": "",
        "country": "AR",
        "coord": {
            "lon": -59.262562,
            "lat": -29.14003
        }
    },
    {
        "id": 3433723,
        "name": "González Catán",
        "state": "",
        "country": "AR",
        "coord": {
            "lon": -58.647141,
            "lat": -34.768951
        }
    },
    {
        "id": 3433724,
        "name": "González Calderón",
        "state": "",
        "country": "AR",
        "coord": {
            "lon": -59.416672,
            "lat": -32.98333
        }
    },
    {
        "id": 3433743,
        "name": "Gobernador Roca",
        "state": "",
        "country": "AR",
        "coord": {
            "lon": -55.464329,
            "lat": -27.186359
        }
    },
    {
        "id": 3433747,
        "name": "Gobernador Mansilla",
        "state": "",
        "country": "AR",
        "coord": {
            "lon": -59.354801,
            "lat": -32.544529
        }
    },
    {
        "id": 3433751,
        "name": "Gobernador Juan E. Martínez",
        "state": "",
        "country": "AR",
        "coord": {
            "lon": -58.932919,
            "lat": -28.917049
        }
    },
    {
        "id": 3433753,
        "name": "Gobernador Virasora",
        "state": "",
        "country": "AR",
        "coord": {
            "lon": -56.033329,
            "lat": -28.049999
        }
    },
    {
        "id": 3433756,
        "name": "Gobernador Castro",
        "state": "",
        "country": "AR",
        "coord": {
            "lon": -59.867802,
            "lat": -33.65802
        }
    },
    {
        "id": 3433762,
        "name": "Glew",
        "state": "",
        "country": "AR",
        "coord": {
            "lon": -58.37764,
            "lat": -34.89151
        }
    },
    {
        "id": 3433773,
        "name": "General Vedia",
        "state": "",
        "country": "AR",
        "coord": {
            "lon": -58.6604,
            "lat": -26.933821
        }
    },
    {
        "id": 3433775,
        "name": "Villa Urquiza",
        "state": "",
        "country": "AR",
        "coord": {
            "lon": -58.48333,
            "lat": -34.566669
        }
    },
    {
        "id": 3433780,
        "name": "Partido de General Rodríguez",
        "state": "",
        "country": "AR",
        "coord": {
            "lon": -59.0,
            "lat": -34.666672
        }
    },
    {
        "id": 3433781,
        "name": "General Rodríguez",
        "state": "",
        "country": "AR",
        "coord": {
            "lon": -58.95253,
            "lat": -34.608379
        }
    },
    {
        "id": 3433787,
        "name": "General Pacheco",
        "state": "",
        "country": "AR",
        "coord": {
            "lon": -58.64296,
            "lat": -34.448818
        }
    },
    {
        "id": 3433798,
        "name": "Partido de General Las Heras",
        "state": "",
        "country": "AR",
        "coord": {
            "lon": -59.0,
            "lat": -34.833328
        }
    },
    {
        "id": 3433799,
        "name": "General Las Heras",
        "state": "",
        "country": "AR",
        "coord": {
            "lon": -58.946209,
            "lat": -34.927261
        }
    },
    {
        "id": 3433803,
        "name": "General José de San Martín",
        "state": "",
        "country": "AR",
        "coord": {
            "lon": -59.341579,
            "lat": -26.53743
        }
    },
    {
        "id": 3433809,
        "name": "General Galarza",
        "state": "",
        "country": "AR",
        "coord": {
            "lon": -59.396149,
            "lat": -32.720341
        }
    },
    {
        "id": 3433815,
        "name": "General Campos",
        "state": "",
        "country": "AR",
        "coord": {
            "lon": -58.4049,
            "lat": -31.523109
        }
    },
    {
        "id": 3433816,
        "name": "Partido de General Belgrano",
        "state": "",
        "country": "AR",
        "coord": {
            "lon": -58.75,
            "lat": -35.75
        }
    },
    {
        "id": 3433817,
        "name": "General Belgrano",
        "state": "",
        "country": "AR",
        "coord": {
            "lon": -58.493408,
            "lat": -35.76952
        }
    },
    {
        "id": 3433820,
        "name": "General Alvear",
        "state": "",
        "country": "AR",
        "coord": {
            "lon": -55.166672,
            "lat": -27.433331
        }
    },
    {
        "id": 3433822,
        "name": "General Almada",
        "state": "",
        "country": "AR",
        "coord": {
            "lon": -58.804729,
            "lat": -32.836899
        }
    },
    {
        "id": 3433836,
        "name": "Garupá",
        "state": "",
        "country": "AR",
        "coord": {
            "lon": -55.829208,
            "lat": -27.48171
        }
    },
    {
        "id": 3433839,
        "name": "Garuhapé",
        "state": "",
        "country": "AR",
        "coord": {
            "lon": -54.956638,
            "lat": -26.81768
        }
    },
    {
        "id": 3433842,
        "name": "Garruchos",
        "state": "",
        "country": "AR",
        "coord": {
            "lon": -55.639469,
            "lat": -28.185141
        }
    },
    {
        "id": 3433844,
        "name": "Garín",
        "state": "",
        "country": "AR",
        "coord": {
            "lon": -58.749001,
            "lat": -34.420631
        }
    },
    {
        "id": 3433881,
        "name": "Francisco Álvarez",
        "state": "",
        "country": "AR",
        "coord": {
            "lon": -58.858341,
            "lat": -34.633869
        }
    },
    {
        "id": 3433893,
        "name": "Fortín Aguilar",
        "state": "",
        "country": "AR",
        "coord": {
            "lon": -59.633331,
            "lat": -27.066669
        }
    },
    {
        "id": 3433896,
        "name": "Formosa Province",
        "state": "",
        "country": "AR",
        "coord": {
            "lon": -60.0,
            "lat": -25.0
        }
    },
    {
        "id": 3433899,
        "name": "Formosa",
        "state": "",
        "country": "AR",
        "coord": {
            "lon": -58.178139,
            "lat": -26.17753
        }
    },
    {
        "id": 3433901,
        "name": "Fontana",
        "state": "",
        "country": "AR",
        "coord": {
            "lon": -59.023918,
            "lat": -27.418131
        }
    },
    {
        "id": 3433910,
        "name": "Floresta",
        "state": "",
        "country": "AR",
        "coord": {
            "lon": -58.46619,
            "lat": -34.63335
        }
    },
    {
        "id": 3433919,
        "name": "Florentino Ameghino",
        "state": "",
        "country": "AR",
        "coord": {
            "lon": -55.133331,
            "lat": -27.566669
        }
    },
    {
        "id": 3433922,
        "name": "Partido de Florencio Varela",
        "state": "",
        "country": "AR",
        "coord": {
            "lon": -58.25,
            "lat": -34.833328
        }
    },
    {
        "id": 3433923,
        "name": "Florencio Varela",
        "state": "",
        "country": "AR",
        "coord": {
            "lon": -58.395561,
            "lat": -34.827221
        }
    },
    {
        "id": 3433944,
        "name": "Felipe Yofré",
        "state": "",
        "country": "AR",
        "coord": {
            "lon": -58.337719,
            "lat": -29.102261
        }
    },
    {
        "id": 3433955,
        "name": "Ciudad Autónoma de Buenos Aires",
        "state": "",
        "country": "AR",
        "coord": {
            "lon": -58.450001,
            "lat": -34.599998
        }
    },
    {
        "id": 3433956,
        "name": "Federal",
        "state": "",
        "country": "AR",
        "coord": {
            "lon": -58.78326,
            "lat": -30.954651
        }
    },
    {
        "id": 3433959,
        "name": "Federación",
        "state": "",
        "country": "AR",
        "coord": {
            "lon": -57.89962,
            "lat": -31.00621
        }
    },
    {
        "id": 3433964,
        "name": "Fátima",
        "state": "",
        "country": "AR",
        "coord": {
            "lon": -58.986549,
            "lat": -34.43903
        }
    },
    {
        "id": 3433974,
        "name": "Ezpeleta",
        "state": "",
        "country": "AR",
        "coord": {
            "lon": -58.230782,
            "lat": -34.748489
        }
    },
    {
        "id": 3433975,
        "name": "José María Ezeiza",
        "state": "",
        "country": "AR",
        "coord": {
            "lon": -58.52869,
            "lat": -34.84787
        }
    },
    {
        "id": 3434003,
        "name": "Partido de Esteban Echeverría",
        "state": "",
        "country": "AR",
        "coord": {
            "lon": -58.465832,
            "lat": -34.819172
        }
    },
    {
        "id": 3434094,
        "name": "Departamento de Esquina",
        "state": "",
        "country": "AR",
        "coord": {
            "lon": -59.333328,
            "lat": -30.0
        }
    },
    {
        "id": 3434095,
        "name": "Esquina",
        "state": "",
        "country": "AR",
        "coord": {
            "lon": -59.527191,
            "lat": -30.014441
        }
    },
    {
        "id": 3434132,
        "name": "Escalada",
        "state": "",
        "country": "AR",
        "coord": {
            "lon": -59.11396,
            "lat": -34.159199
        }
    },
    {
        "id": 3434137,
        "name": "Entre Ríos Province",
        "state": "",
        "country": "AR",
        "coord": {
            "lon": -59.0,
            "lat": -32.0
        }
    },
    {
        "id": 3434146,
        "name": "Energía",
        "state": "",
        "country": "AR",
        "coord": {
            "lon": -59.35519,
            "lat": -38.558601
        }
    },
    {
        "id": 3434155,
        "name": "Empalme San Vicente",
        "state": "",
        "country": "AR",
        "coord": {
            "lon": -58.376171,
            "lat": -34.982639
        }
    },
    {
        "id": 3434161,
        "name": "Emiliano Reynoso",
        "state": "",
        "country": "AR",
        "coord": {
            "lon": -59.876339,
            "lat": -35.54821
        }
    },
    {
        "id": 3434189,
        "name": "El Verano",
        "state": "",
        "country": "AR",
        "coord": {
            "lon": -58.542309,
            "lat": -37.740841
        }
    },
    {
        "id": 3434261,
        "name": "El Talar",
        "state": "",
        "country": "AR",
        "coord": {
            "lon": -58.65086,
            "lat": -34.470901
        }
    },
    {
        "id": 3434291,
        "name": "El Soberbio",
        "state": "",
        "country": "AR",
        "coord": {
            "lon": -54.198769,
            "lat": -27.29846
        }
    },
    {
        "id": 3434509,
        "name": "El Palomar",
        "state": "",
        "country": "AR",
        "coord": {
            "lon": -58.61528,
            "lat": -34.541672
        }
    },
    {
        "id": 3434731,
        "name": "El Colorado",
        "state": "",
        "country": "AR",
        "coord": {
            "lon": -59.37291,
            "lat": -26.308081
        }
    },
    {
        "id": 3434932,
        "name": "El Alcázar",
        "state": "",
        "country": "AR",
        "coord": {
            "lon": -54.815231,
            "lat": -26.71459
        }
    },
    {
        "id": 3434958,
        "name": "Echagüe",
        "state": "",
        "country": "AR",
        "coord": {
            "lon": -59.282001,
            "lat": -32.39185
        }
    },
    {
        "id": 3434966,
        "name": "Durazno",
        "state": "",
        "country": "AR",
        "coord": {
            "lon": -59.277802,
            "lat": -31.98564
        }
    },
    {
        "id": 3434995,
        "name": "Dos de Mayo",
        "state": "",
        "country": "AR",
        "coord": {
            "lon": -54.686691,
            "lat": -27.02277
        }
    },
    {
        "id": 3434997,
        "name": "Dos Arroyos",
        "state": "",
        "country": "AR",
        "coord": {
            "lon": -55.233639,
            "lat": -27.70784
        }
    },
    {
        "id": 3435010,
        "name": "Don Torcuato",
        "state": "",
        "country": "AR",
        "coord": {
            "lon": -58.639149,
            "lat": -34.496738
        }
    },
    {
        "id": 3435021,
        "name": "Don Cristóbal",
        "state": "",
        "country": "AR",
        "coord": {
            "lon": -59.993778,
            "lat": -32.071201
        }
    },
    {
        "id": 3435024,
        "name": "Don Bosco",
        "state": "",
        "country": "AR",
        "coord": {
            "lon": -58.292679,
            "lat": -34.701889
        }
    },
    {
        "id": 3435029,
        "name": "Domselaar",
        "state": "",
        "country": "AR",
        "coord": {
            "lon": -58.285542,
            "lat": -35.072231
        }
    },
    {
        "id": 3435030,
        "name": "Domínguez",
        "state": "",
        "country": "AR",
        "coord": {
            "lon": -58.961971,
            "lat": -31.987101
        }
    },
    {
        "id": 3435032,
        "name": "Partido de Dolores",
        "state": "",
        "country": "AR",
        "coord": {
            "lon": -57.666672,
            "lat": -36.416672
        }
    },
    {
        "id": 3435038,
        "name": "Dolores",
        "state": "",
        "country": "AR",
        "coord": {
            "lon": -57.67918,
            "lat": -36.313221
        }
    },
    {
        "id": 3435050,
        "name": "Dock Sud",
        "state": "",
        "country": "AR",
        "coord": {
            "lon": -58.366669,
            "lat": -34.633331
        }
    },
    {
        "id": 3435055,
        "name": "Dique Luján",
        "state": "",
        "country": "AR",
        "coord": {
            "lon": -58.68792,
            "lat": -34.357189
        }
    },
    {
        "id": 3435073,
        "name": "Diamante",
        "state": "",
        "country": "AR",
        "coord": {
            "lon": -58.416672,
            "lat": -34.666672
        }
    },
    {
        "id": 3435087,
        "name": "Del Viso",
        "state": "",
        "country": "AR",
        "coord": {
            "lon": -58.787811,
            "lat": -34.45013
        }
    },
    {
        "id": 3435103,
        "name": "Curuzú Cuatiá",
        "state": "",
        "country": "AR",
        "coord": {
            "lon": -58.0546,
            "lat": -29.79171
        }
    },
    {
        "id": 3435107,
        "name": "Curuzú",
        "state": "",
        "country": "AR",
        "coord": {
            "lon": -55.824799,
            "lat": -27.914869
        }
    },
    {
        "id": 3435178,
        "name": "Cruz de los Milagros",
        "state": "",
        "country": "AR",
        "coord": {
            "lon": -59.004761,
            "lat": -28.83646
        }
    },
    {
        "id": 3435189,
        "name": "Cristiano Muerto",
        "state": "",
        "country": "AR",
        "coord": {
            "lon": -59.604549,
            "lat": -38.647781
        }
    },
    {
        "id": 3435196,
        "name": "Coté-Lai",
        "state": "",
        "country": "AR",
        "coord": {
            "lon": -59.599998,
            "lat": -27.5
        }
    },
    {
        "id": 3435214,
        "name": "Corrientes Province",
        "state": "",
        "country": "AR",
        "coord": {
            "lon": -58.0,
            "lat": -29.0
        }
    },
    {
        "id": 3435217,
        "name": "Corrientes",
        "state": "",
        "country": "AR",
        "coord": {
            "lon": -58.834099,
            "lat": -27.4806
        }
    },
    {
        "id": 3435234,
        "name": "Coronel Vidal",
        "state": "",
        "country": "AR",
        "coord": {
            "lon": -57.728649,
            "lat": -37.446041
        }
    },
    {
        "id": 3435257,
        "name": "Constitución",
        "state": "",
        "country": "AR",
        "coord": {
            "lon": -58.38633,
            "lat": -34.625931
        }
    },
    {
        "id": 3435258,
        "name": "Conscripto Bernardi",
        "state": "",
        "country": "AR",
        "coord": {
            "lon": -59.084351,
            "lat": -31.04837
        }
    },
    {
        "id": 3435259,
        "name": "Congreso",
        "state": "",
        "country": "AR",
        "coord": {
            "lon": -58.39225,
            "lat": -34.609482
        }
    },
    {
        "id": 3435261,
        "name": "Concordia",
        "state": "",
        "country": "AR",
        "coord": {
            "lon": -58.020889,
            "lat": -31.39296
        }
    },
    {
        "id": 3435264,
        "name": "Concepción del Uruguay",
        "state": "",
        "country": "AR",
        "coord": {
            "lon": -58.237221,
            "lat": -32.482491
        }
    },
    {
        "id": 3435266,
        "name": "Concepción de la Sierra",
        "state": "",
        "country": "AR",
        "coord": {
            "lon": -55.520309,
            "lat": -27.98311
        }
    },
    {
        "id": 3435269,
        "name": "Departamento de Concepción",
        "state": "",
        "country": "AR",
        "coord": {
            "lon": -58.0,
            "lat": -28.33333
        }
    },
    {
        "id": 3435273,
        "name": "Concepción",
        "state": "",
        "country": "AR",
        "coord": {
            "lon": -57.887772,
            "lat": -28.39175
        }
    },
    {
        "id": 3435280,
        "name": "Comandante Nicanor Otamendi, Republica de Dubai",
        "state": "",
        "country": "AR",
        "coord": {
            "lon": -57.838089,
            "lat": -38.114151
        }
    },
    {
        "id": 3435283,
        "name": "Comandante Fontana",
        "state": "",
        "country": "AR",
        "coord": {
            "lon": -59.682121,
            "lat": -25.33453
        }
    },
    {
        "id": 3435290,
        "name": "Colonia Wanda",
        "state": "",
        "country": "AR",
        "coord": {
            "lon": -54.428059,
            "lat": -25.974079
        }
    },
    {
        "id": 3435295,
        "name": "Colonias Unidas",
        "state": "",
        "country": "AR",
        "coord": {
            "lon": -59.631538,
            "lat": -26.69825
        }
    },
    {
        "id": 3435330,
        "name": "Colonia Elisa",
        "state": "",
        "country": "AR",
        "coord": {
            "lon": -59.518608,
            "lat": -26.93041
        }
    },
    {
        "id": 3435331,
        "name": "Colonia Elía",
        "state": "",
        "country": "AR",
        "coord": {
            "lon": -58.32148,
            "lat": -32.666248
        }
    },
    {
        "id": 3435340,
        "name": "Colonia Benítez",
        "state": "",
        "country": "AR",
        "coord": {
            "lon": -58.94622,
            "lat": -27.33099
        }
    },
    {
        "id": 3435344,
        "name": "Colonia Aurora",
        "state": "",
        "country": "AR",
        "coord": {
            "lon": -54.524979,
            "lat": -27.474279
        }
    },
    {
        "id": 3435356,
        "name": "Colegiales",
        "state": "",
        "country": "AR",
        "coord": {
            "lon": -58.449242,
            "lat": -34.57365
        }
    },
    {
        "id": 3435364,
        "name": "Clorinda",
        "state": "",
        "country": "AR",
        "coord": {
            "lon": -57.71851,
            "lat": -25.284809
        }
    },
    {
        "id": 3435369,
        "name": "Claypole",
        "state": "",
        "country": "AR",
        "coord": {
            "lon": -58.334339,
            "lat": -34.796749
        }
    },
    {
        "id": 3435375,
        "name": "Ciudad Evita",
        "state": "",
        "country": "AR",
        "coord": {
            "lon": -58.529789,
            "lat": -34.722961
        }
    },
    {
        "id": 3435376,
        "name": "Ciudadela",
        "state": "",
        "country": "AR",
        "coord": {
            "lon": -58.540779,
            "lat": -34.637718
        }
    },
    {
        "id": 3435399,
        "name": "Ciervo Petiso",
        "state": "",
        "country": "AR",
        "coord": {
            "lon": -59.630939,
            "lat": -26.58041
        }
    },
    {
        "id": 3435406,
        "name": "Partido de Chivilcoy",
        "state": "",
        "country": "AR",
        "coord": {
            "lon": -59.916672,
            "lat": -34.916672
        }
    },
    {
        "id": 3435417,
        "name": "Chillar",
        "state": "",
        "country": "AR",
        "coord": {
            "lon": -59.98436,
            "lat": -37.312328
        }
    },
    {
        "id": 3435444,
        "name": "Chavarría",
        "state": "",
        "country": "AR",
        "coord": {
            "lon": -58.572769,
            "lat": -28.95488
        }
    },
    {
        "id": 3435446,
        "name": "Partido de Chascomús",
        "state": "",
        "country": "AR",
        "coord": {
            "lon": -57.833328,
            "lat": -35.75
        }
    },
    {
        "id": 3435448,
        "name": "Chascomús",
        "state": "",
        "country": "AR",
        "coord": {
            "lon": -58.008091,
            "lat": -35.572971
        }
    },
    {
        "id": 3435453,
        "name": "Charadai",
        "state": "",
        "country": "AR",
        "coord": {
            "lon": -59.900002,
            "lat": -27.633329
        }
    },
    {
        "id": 3435486,
        "name": "Chajarí",
        "state": "",
        "country": "AR",
        "coord": {
            "lon": -57.979622,
            "lat": -30.750481
        }
    },
    {
        "id": 3435506,
        "name": "Chacarita",
        "state": "",
        "country": "AR",
        "coord": {
            "lon": -58.452499,
            "lat": -34.587009
        }
    },
    {
        "id": 3435525,
        "name": "Cerro Corá",
        "state": "",
        "country": "AR",
        "coord": {
            "lon": -55.608959,
            "lat": -27.5131
        }
    },
    {
        "id": 3435532,
        "name": "Cerro Azul",
        "state": "",
        "country": "AR",
        "coord": {
            "lon": -55.496201,
            "lat": -27.633101
        }
    },
    {
        "id": 3435539,
        "name": "Cerrito",
        "state": "",
        "country": "AR",
        "coord": {
            "lon": -57.912769,
            "lat": -27.84218
        }
    },
    {
        "id": 3435551,
        "name": "Centinela del Mar",
        "state": "",
        "country": "AR",
        "coord": {
            "lon": -58.221748,
            "lat": -38.433159
        }
    },
    {
        "id": 3435570,
        "name": "Ceibas",
        "state": "",
        "country": "AR",
        "coord": {
            "lon": -58.75,
            "lat": -33.433331
        }
    },
    {
        "id": 3435612,
        "name": "Caseros",
        "state": "",
        "country": "AR",
        "coord": {
            "lon": -58.478722,
            "lat": -32.463249
        }
    },
    {
        "id": 3435643,
        "name": "Partido de Carmen de Areco",
        "state": "",
        "country": "AR",
        "coord": {
            "lon": -59.833328,
            "lat": -34.333328
        }
    },
    {
        "id": 3435644,
        "name": "Carmen de Areco",
        "state": "",
        "country": "AR",
        "coord": {
            "lon": -59.822788,
            "lat": -34.375332
        }
    },
    {
        "id": 3435679,
        "name": "Caraguatay",
        "state": "",
        "country": "AR",
        "coord": {
            "lon": -54.78093,
            "lat": -26.605869
        }
    },
    {
        "id": 3435688,
        "name": "Capitán Solari",
        "state": "",
        "country": "AR",
        "coord": {
            "lon": -59.56089,
            "lat": -26.802151
        }
    },
    {
        "id": 3435689,
        "name": "Partido de Capitán Sarmiento",
        "state": "",
        "country": "AR",
        "coord": {
            "lon": -59.833328,
            "lat": -34.166672
        }
    },
    {
        "id": 3435690,
        "name": "Capitán Sarmiento",
        "state": "",
        "country": "AR",
        "coord": {
            "lon": -59.789871,
            "lat": -34.172691
        }
    },
    {
        "id": 3435701,
        "name": "Capioví",
        "state": "",
        "country": "AR",
        "coord": {
            "lon": -55.060841,
            "lat": -26.929979
        }
    },
    {
        "id": 3435704,
        "name": "Capilla del Señor",
        "state": "",
        "country": "AR",
        "coord": {
            "lon": -59.101791,
            "lat": -34.292068
        }
    },
    {
        "id": 3435713,
        "name": "Cañuelas",
        "state": "",
        "country": "AR",
        "coord": {
            "lon": -58.760609,
            "lat": -35.051842
        }
    },
    {
        "id": 3435719,
        "name": "Canning",
        "state": "",
        "country": "AR",
        "coord": {
            "lon": -58.51054,
            "lat": -34.878342
        }
    },
    {
        "id": 3435732,
        "name": "Departamento de Candelaria",
        "state": "",
        "country": "AR",
        "coord": {
            "lon": -55.5,
            "lat": -27.5
        }
    },
    {
        "id": 3435734,
        "name": "Candelaria",
        "state": "",
        "country": "AR",
        "coord": {
            "lon": -55.745361,
            "lat": -27.459499
        }
    },
    {
        "id": 3435750,
        "name": "Campo Viera",
        "state": "",
        "country": "AR",
        "coord": {
            "lon": -55.033329,
            "lat": -27.383329
        }
    },